{"jakarta": {"flood_analytics": {"monthly_frequency": [{"month": 1, "flood_count": 21242, "avg_duration": 0.8}, {"month": 2, "flood_count": 20766, "avg_duration": 0.9}, {"month": 3, "flood_count": 8178, "avg_duration": 0.7}, {"month": 4, "flood_count": 5568, "avg_duration": 0.6}, {"month": 5, "flood_count": 4068, "avg_duration": 0.5}, {"month": 6, "flood_count": 2026, "avg_duration": 0.6}, {"month": 7, "flood_count": 4592, "avg_duration": 0.9}, {"month": 8, "flood_count": 2734, "avg_duration": 0.4}, {"month": 9, "flood_count": 2490, "avg_duration": 0.5}, {"month": 10, "flood_count": 5812, "avg_duration": 0.6}, {"month": 11, "flood_count": 7954, "avg_duration": 0.6}, {"month": 12, "flood_count": 6816, "avg_duration": 0.9}], "yearly_trend": [{"year": 2002, "flood_count": 14, "avg_area": 141.41}, {"year": 2005, "flood_count": 20, "avg_area": 70.49}, {"year": 2006, "flood_count": 12, "avg_area": 4.3}, {"year": 2007, "flood_count": 112, "avg_area": 142.79}, {"year": 2008, "flood_count": 16, "avg_area": 283.08}, {"year": 2009, "flood_count": 218, "avg_area": 53.57}, {"year": 2010, "flood_count": 406, "avg_area": 32.6}, {"year": 2011, "flood_count": 212, "avg_area": 33.56}, {"year": 2012, "flood_count": 830, "avg_area": 31.81}, {"year": 2013, "flood_count": 2390, "avg_area": 37.31}, {"year": 2014, "flood_count": 4566, "avg_area": 18.46}, {"year": 2015, "flood_count": 2722, "avg_area": 26.32}, {"year": 2016, "flood_count": 4578, "avg_area": 31.82}, {"year": 2017, "flood_count": 4258, "avg_area": 30.85}, {"year": 2018, "flood_count": 2754, "avg_area": 35.36}, {"year": 2019, "flood_count": 4596, "avg_area": 42.15}, {"year": 2020, "flood_count": 12948, "avg_area": 37.74}, {"year": 2021, "flood_count": 9162, "avg_area": 36.56}, {"year": 2022, "flood_count": 8126, "avg_area": 44.11}, {"year": 2023, "flood_count": 5010, "avg_area": 39.0}, {"year": 2024, "flood_count": 8386, "avg_area": 36.76}, {"year": 2025, "flood_count": 15250, "avg_area": 37.98}, {"year": 2026, "flood_count": 5660, "avg_area": 10.0}], "total_events": 74300, "avg_duration_days": 0.7}, "cascade_analysis": {"first_order": {"description": "Direct flood inundation across Jakarta metro", "population_at_risk": 47000, "flood_area_expanded": true, "water_level_delta_m": 2.0}, "second_order": {"description": "Healthcare & education disruption", "hospitals_at_risk": 161, "hospital_names": ["RSUD KOJA", "RSU PORT MEDICAL CENTER", "RSU PANTAI INDAH KAPUK", "RS SUKMUL SISMA MEDIKA", "RSUD CILINCING"], "schools_at_risk": 263, "newly_isolated_hospitals": []}, "third_order": {"description": "Power grid & utility failures", "power_stations_at_risk": 20, "power_station_names": ["Unknown power_station", "Unknown power_station", "Unknown power_station", "Unknown power_station", "Unknown power_station"], "estimated_residents_without_power": 300000}, "fourth_order": {"description": "Vulnerable population exposure", "children_under_5": 3760, "elderly_over_65": 2820, "hospital_patients_needing_evac": 19320}, "infrastructure_current": {"hospitals": 161, "schools": 263, "power_stations": 20, "shelters": 26}, "infrastructure_expanded": {"hospitals": 161, "schools": 263, "power_stations": 20, "shelters": 26}, "population_at_risk": 47000}, "vulnerability_ranking": {"ranking": [{"name": "RSUD BUDHI ASIH", "type": "hospital", "latitude": -6.2560273, "longitude": 106.862978, "flood_exposure_count": 1890, "worst_flood_area": 2.1360363537167872, "worst_flood_duration": 6}, {"name": "RS HERMINA JATINEGARA", "type": "hospital", "latitude": -6.2215235, "longitude": 106.8644361, "flood_exposure_count": 1534, "worst_flood_area": 1.1007825633664938, "worst_flood_duration": 6}, {"name": "RS AGUNG", "type": "hospital", "latitude": -6.2091793, "longitude": 106.8463579, "flood_exposure_count": 894, "worst_flood_area": 638.2897678663255, "worst_flood_duration": 6}, {"name": "Gardu Ciliwung KM 93", "type": "power_station", "latitude": -6.2284449, "longitude": 106.8650356, "flood_exposure_count": 804, "worst_flood_area": 1.0677553509732678, "worst_flood_duration": 6}, {"name": "Tempat Pengungsian Duta Indah Karya", "type": "shelter", "latitude": -6.1557874, "longitude": 106.7353535, "flood_exposure_count": 780, "worst_flood_area": 26.49751335719746, "worst_flood_duration": 6}, {"name": "Gardu PLN", "type": "power_station", "latitude": -6.2293535, "longitude": 106.8646346, "flood_exposure_count": 762, "worst_flood_area": 1.0677553509732678, "worst_flood_duration": 6}, {"name": "Pangkalan Ojek Grab Otista Raya", "type": "shelter", "latitude": -6.2301912, "longitude": 106.8671159, "flood_exposure_count": 742, "worst_flood_area": 1.0677553509732678, "worst_flood_duration": 6}, {"name": "RS SILOAM ASRI", "type": "hospital", "latitude": -6.254542, "longitude": 106.8323327, "flood_exposure_count": 712, "worst_flood_area": 8.436274498367807, "worst_flood_duration": 6}, {"name": "PK 277", "type": "power_station", "latitude": -6.1252317, "longitude": 106.8780289, "flood_exposure_count": 710, "worst_flood_area": 133.09703685772433, "worst_flood_duration": 6}, {"name": "RSUD JATI PADANG", "type": "hospital", "latitude": -6.2855018, "longitude": 106.8423101, "flood_exposure_count": 690, "worst_flood_area": 4.555569841448183, "worst_flood_duration": 6}, {"name": "Springfield International School PB3", "type": "school", "latitude": -6.166528, "longitude": 106.7466761, "flood_exposure_count": 650, "worst_flood_area": 131.03006629646327, "worst_flood_duration": 6}, {"name": "Dentista", "type": "hospital", "latitude": -6.2854953, "longitude": 106.8335564, "flood_exposure_count": 642, "worst_flood_area": 20.153799116655456, "worst_flood_duration": 6}, {"name": "SD. 234", "type": "power_station", "latitude": -6.1308535, "longitude": 106.8712053, "flood_exposure_count": 640, "worst_flood_area": 133.09703685772433, "worst_flood_duration": 6}, {"name": "Ocean Dental Tebet", "type": "hospital", "latitude": -6.2282877, "longitude": 106.8554624, "flood_exposure_count": 620, "worst_flood_area": 8.397488282220879, "worst_flood_duration": 6}, {"name": "Sinshe Tong Ren", "type": "hospital", "latitude": -6.2618713, "longitude": 106.8292364, "flood_exposure_count": 602, "worst_flood_area": 3.143562180570322, "worst_flood_duration": 6}, {"name": "SD, SMP Al Humaid", "type": "school", "latitude": -6.2347218, "longitude": 106.8972323, "flood_exposure_count": 602, "worst_flood_area": 3.617065717944273, "worst_flood_duration": 6}, {"name": "Unknown power_station", "type": "power_station", "latitude": -6.1151464, "longitude": 106.7741243, "flood_exposure_count": 600, "worst_flood_area": 29.147145012354077, "worst_flood_duration": 6}, {"name": "Penabur 6", "type": "school", "latitude": -6.1150368, "longitude": 106.7748375, "flood_exposure_count": 600, "worst_flood_area": 29.147145012354077, "worst_flood_duration": 6}, {"name": "Unknown school", "type": "school", "latitude": -6.2906285, "longitude": 106.8438945, "flood_exposure_count": 596, "worst_flood_area": 0.71311507575627, "worst_flood_duration": 6}, {"name": "Unknown shelter", "type": "shelter", "latitude": -6.1606649, "longitude": 106.7475113, "flood_exposure_count": 586, "worst_flood_area": 131.03006629646327, "worst_flood_duration": 6}], "total_ranked": 20}}}